<kml xmlns="http://www.opengis.net/kml/2.2">
<Document>
<Placemark>
<name>LEAL</name>
<Point>
<coordinates>
2.3958333333,39.5494444444
</coordinates>
</Point>
</Placemark>
<Placemark>
<name>LEBL</name>
<Point>
<coordinates>
3.4886111111,41.5447222222
</coordinates>
</Point>
</Placemark>
<Placemark>
<name>LEGE</name>
<Point>
<coordinates>
2.4713888889,39.6577777778
</coordinates>
</Point>
</Placemark>
<Placemark>
<name>LEIB</name>
<Point>
<coordinates>
1.7916666667,41.6811111111
</coordinates>
</Point>
</Placemark>
<Placemark>
<name>LELL</name>
<Point>
<coordinates>
0.4986111111,41.9330555556
</coordinates>
</Point>
</Placemark>
<Placemark>
<name>LEMH</name>
<Point>
<coordinates>
-0.57,38.2683333333
</coordinates>
</Point>
</Placemark>
<Placemark>
<name>LEPA</name>
<Point>
<coordinates>
-0.56192225,38.28822875
</coordinates>
</Point>
</Placemark>
<Placemark>
<name>LERS</name>
<Point>
<coordinates>
-0.5560695333,38.2823164
</coordinates>
</Point>
</Placemark>
<Placemark>
<name>LEVC</name>
<Point>
<coordinates>
-0.3419413167,38.2371194
</coordinates>
</Point>
</Placemark>
<Placemark>
<name>LEZG</name>
<Point>
<coordinates>
-0.5333963333,38.2967747333
</coordinates>
</Point>
</Placemark>
</Document>
</kml>